City,Latitude,Longitude,Max Temp,Humidity,Cloudiness,Wind Speed,Country,Date
Longyearbyen,78.22,15.64,19.4,79,20,8.05,SJ,1602971102
Itarema,-2.92,-39.92,79.39,78,81,15.48,BR,1602971121
New Norfolk,-42.78,147.06,46.99,91,55,1.01,AU,1602971121
Rikitea,-23.12,-134.97,74.21,80,100,20.98,PF,1602971121
Barrow,71.29,-156.79,17.6,78,1,12.75,US,1602970832
Avarua,-21.21,-159.78,77.0,73,83,17.22,CK,1602971121
Albany,42.6,-73.97,55.0,57,0,3.44,US,1602970795
Yangi Marg`ilon,40.43,71.72,53.6,87,0,2.75,UZ,1602971121
La Ronge,55.1,-105.28,28.4,74,90,18.34,CA,1602971122
Oranjemund,-28.55,16.43,58.68,90,0,10.07,NA,1602971122
Bluff,-46.6,168.33,50.0,73,91,7.0,NZ,1602970708
Bethel,41.37,-73.41,57.2,33,1,5.82,US,1602971122
Faya,18.39,42.45,62.6,18,0,5.82,SA,1602971122
Saldanha,-33.01,17.94,57.2,82,47,5.82,ZA,1602971122
Port-Gentil,-0.72,8.78,78.8,88,75,9.17,GA,1602971122
George Town,5.41,100.34,77.0,94,40,5.82,MY,1602971122
Ushuaia,-54.8,-68.3,46.4,52,90,13.87,AR,1602970925
Mayumba,-3.43,10.66,76.33,88,74,4.5,GA,1602971122
Sinop Province,41.77,34.87,60.71,45,62,3.09,TR,1602971122
Narrabri,-30.32,149.78,69.8,52,75,1.12,AU,1602970953
Ribeira Grande,38.52,-28.7,63.28,63,97,16.22,PT,1602971122
Saint Anthony,45.02,-93.22,50.0,61,75,12.75,US,1602971122
Norman Wells,65.28,-126.83,21.2,62,5,6.93,CA,1602970832
Tuktoyaktuk,69.45,-133.04,19.4,73,5,9.17,CA,1602970695
Constitución,-35.33,-72.42,55.74,74,9,13.24,CL,1602971122
Provideniya,64.38,-173.3,38.39,89,61,2.39,RU,1602971123
Vaini,-21.2,-175.2,77.0,94,75,11.41,TO,1602971123
Mataura,-46.19,168.86,50.0,73,93,7.0,NZ,1602970569
Busselton,-33.65,115.33,54.0,61,0,10.4,AU,1602970796
Dămieneşti,46.73,26.98,55.4,66,77,5.82,RO,1602971123
Cape Town,-33.93,18.42,59.0,87,20,8.05,ZA,1602971120
Thompson,55.74,-97.86,30.2,92,90,5.82,CA,1602971123
Ucluelet,48.93,-125.55,54.0,93,90,3.36,CA,1602970889
Carnarvon,-24.87,113.63,66.2,88,40,11.41,AU,1602971123
Gouré,13.98,10.27,84.99,32,0,5.82,NE,1602971123
Miles City,46.41,-105.84,33.8,47,90,12.75,US,1602971123
Afuá,-0.16,-50.39,81.23,70,46,9.22,BR,1602970975
Torbay,47.67,-52.73,52.0,100,90,9.17,CA,1602970832
Cabo San Lucas,22.89,-109.91,89.01,74,40,9.17,MX,1602971036
Lompoc,34.64,-120.46,86.0,28,1,13.87,US,1602971123
Punta Arenas,-53.15,-70.92,44.6,87,100,17.22,CL,1602971077
Wattegama,6.8,81.48,77.0,88,100,4.7,LK,1602971124
Mayo,38.89,-76.51,60.01,44,1,8.05,US,1602970837
Ponta do Sol,32.67,-17.1,69.8,68,40,13.87,PT,1602970830
San Andrés,12.58,-81.7,87.8,74,40,12.75,CO,1602971124
Roald,62.58,6.13,43.0,80,75,18.34,NO,1602971124
Flinders,-34.58,150.86,68.0,77,100,1.01,AU,1602971124
Geraldton,-28.77,114.6,59.0,67,3,10.29,AU,1602971124
Hermanus,-34.42,19.23,57.0,93,38,4.63,ZA,1602971124
Port Alfred,-33.59,26.89,64.74,85,93,11.72,ZA,1602971124
Henties Bay,-22.12,14.28,57.99,92,0,3.0,NA,1602971124
Aksu,41.12,80.26,50.68,42,95,5.37,CN,1602971129
Itigi,-5.7,34.48,64.35,57,19,7.07,TZ,1602971129
Cayenne,4.93,-52.33,86.0,70,20,5.82,GF,1602971129
Cutlerville,42.84,-85.66,54.0,37,90,16.11,US,1602971129
East London,-33.02,27.91,67.62,67,84,8.23,ZA,1602971130
Lebu,-37.62,-73.65,53.76,85,80,6.58,CL,1602970830
Taksimo,56.34,114.88,21.24,86,99,1.19,RU,1602970963
Narsaq,60.92,-46.05,41.0,75,3,3.94,GL,1602971130
Lorengau,-2.02,147.27,83.46,75,72,9.69,PG,1602971130
Santa Cruz de la Sierra,-17.8,-63.17,89.6,46,20,14.99,BO,1602971041
Tiznit Province,29.58,-9.5,59.05,76,0,2.06,MA,1602971130
Port Blair,11.67,92.75,76.71,87,100,13.62,IN,1602971130
Brae,60.4,-1.35,41.0,75,99,11.41,GB,1602971130
Hilo,19.73,-155.09,84.2,66,75,11.41,US,1602971130
Ust'-Uda,54.17,103.03,34.29,88,100,4.12,RU,1602971130
Salinópolis,-0.61,-47.36,80.31,78,99,12.71,BR,1602971130
Severo-Kuril'sk,50.68,156.12,44.87,67,53,12.84,RU,1602971130
Walvis Bay,-22.96,14.51,57.99,87,95,4.7,NA,1602971130
Øksfjord,70.24,22.35,32.0,92,75,2.24,NO,1602971130
Quatre Cocos,-20.21,57.76,73.4,73,20,6.93,MU,1602971130
Saint Paul Harbor,57.79,-152.41,46.4,61,90,3.36,US,1602971131
Bettendorf,41.52,-90.52,62.6,33,75,12.75,US,1602971131
Vardø,70.37,31.11,28.4,86,40,11.41,NO,1602970709
Inhambane,-23.86,35.38,69.04,77,0,7.99,MZ,1602971131
Kiryat Gat,31.61,34.76,75.0,87,0,3.04,IL,1602971131
Bassar,9.25,0.78,75.2,88,20,4.7,TG,1602971131
Big Rapids,43.7,-85.48,51.01,46,90,17.22,US,1602971131
Ancud,-41.87,-73.82,54.0,93,90,17.22,CL,1602971131
Kapaa,22.08,-159.32,78.8,94,75,9.17,US,1602971132
Port Hardy,50.7,-127.42,51.8,81,90,2.24,CA,1602971132
Zonguldak,41.25,31.83,63.32,59,100,4.72,TR,1602971132
Zatoka,46.07,30.47,53.6,87,27,4.47,UA,1602971132
Bambous Virieux,-20.34,57.76,73.4,73,20,6.93,MU,1602971132
Yulara,-25.24,130.99,66.2,55,0,12.75,AU,1602971052
Vanimo,-2.67,141.3,78.85,82,98,4.81,PG,1602971132
Ariquemes,-9.91,-63.04,84.38,57,82,3.18,BR,1602971132
Qaanaaq,77.48,-69.36,34.57,87,100,8.61,GL,1602971132
Adrar,20.5,-10.07,90.0,18,0,7.81,MR,1602971132
Iqaluit,63.75,-68.51,33.8,74,40,9.17,CA,1602971132
Fairbanks,64.84,-147.72,27.0,45,75,5.82,US,1602970837
Saskylakh,71.92,114.08,13.98,96,99,6.17,RU,1602971133
Hobart,-42.88,147.33,46.4,81,75,8.05,AU,1602971046
Yuanping,38.72,112.76,43.14,54,2,1.39,CN,1602971133
Pindiga,9.98,10.93,74.35,86,63,7.11,NG,1602971077
Vila Franca do Campo,37.72,-25.43,60.8,87,40,10.29,PT,1602971133
Butaritari,3.07,172.79,82.38,79,13,20.13,KI,1602970895
Nyagan,62.14,65.39,31.53,88,100,11.88,RU,1602971133
Tasiilaq,65.61,-37.64,33.8,86,34,19.46,GL,1602971133
Esperance,-33.87,121.9,44.6,100,0,6.93,AU,1602971133
Mirceşti,47.08,26.83,50.0,86,58,4.0,RO,1602971133
Beyneu,45.32,55.2,51.62,42,0,5.17,KZ,1602971138
Puerto Ayora,-0.74,-90.35,77.0,65,20,20.8,EC,1602971138
Spas-Demensk,54.41,34.02,40.26,93,100,11.72,RU,1602971138
Bay Roberts,47.6,-53.26,55.0,1,75,9.53,CA,1602971138
Khatanga,71.97,102.5,3.63,91,19,8.5,RU,1602971138
Nome,64.5,-165.41,37.4,86,90,25.28,US,1602971139
Machalí,-34.18,-70.67,72.81,48,0,6.38,CL,1602970855
Eagle Pass,28.71,-100.5,87.01,55,5,11.41,US,1602971139
Bonthe,7.53,-12.51,78.87,87,14,5.39,SL,1602971139
Kaitangata,-46.28,169.85,53.15,62,19,3.78,NZ,1602970589
Husavik,66.04,-17.34,46.4,70,40,16.11,IS,1602971139
Tromsø,69.65,18.96,33.8,69,20,12.75,NO,1602971139
Arraial do Cabo,-22.97,-42.03,71.6,73,20,3.36,BR,1602971139
Saint George,37.1,-113.58,86.0,10,1,8.93,US,1602970975
Coquimbo,-29.95,-71.34,55.4,87,90,5.82,CL,1602971139
Dingle,11.0,122.67,76.23,86,99,1.52,PH,1602971139
Abhā,18.22,42.51,62.6,18,0,5.82,SA,1602971139
Caravelas,-17.71,-39.25,73.81,78,88,8.99,BR,1602971139
Tuatapere,-46.13,167.68,50.0,72,86,8.01,NZ,1602971139
Baniachang,24.52,91.37,78.93,82,8,2.51,BD,1602971139
Talnakh,69.49,88.4,24.8,92,40,17.9,RU,1602970887
Marystown,47.17,-55.15,59.0,100,100,1.99,CA,1602971139
Krasnosel'kup,65.7,82.47,24.44,97,97,10.25,RU,1602971139
Laela,-8.57,32.05,64.85,58,1,3.47,TZ,1602971139
Yerofey Pavlovich,53.97,121.97,19.74,85,32,3.44,RU,1602971139
Thinadhoo,0.53,72.93,82.76,78,41,20.83,MV,1602971139
Nabire,-3.37,135.48,77.68,87,98,3.18,ID,1602970919
Tingi,-11.3,35.03,64.87,75,1,3.13,TZ,1602971139
Hithadhoo,-0.6,73.08,82.99,77,54,19.82,MV,1602971140
Octeville,49.63,-1.64,54.0,81,90,4.7,FR,1602971140
Brewster,41.4,-73.62,57.2,33,1,5.82,US,1602971140
Aktas,49.78,72.96,50.0,34,91,15.66,KZ,1602971140
Port Hawkesbury,45.62,-61.35,62.6,93,90,14.99,CA,1602971140
Avera,33.19,-82.53,69.8,46,1,6.93,US,1602970883
Mount Isa,-20.73,139.5,71.6,40,0,6.93,AU,1602971123
Jales,-20.27,-50.55,83.17,43,43,5.61,BR,1602971140
Saint-Pierre,-21.34,55.48,70.0,68,5,5.82,RE,1602971140
‘Āhuimanu,21.44,-157.84,84.2,70,1,5.82,US,1602971140
Arman',59.7,150.17,31.75,90,88,3.44,RU,1602971140
Sokoni,-6.43,39.55,77.0,83,20,9.51,TZ,1602971140
Nikolskoye,59.7,30.79,37.99,80,40,4.47,RU,1602971140
Petropavlovsk-Kamchatskiy,53.05,158.65,33.8,80,47,2.24,RU,1602971140
Rio Grande,-32.03,-52.1,68.0,80,60,4.0,BR,1602971140
Bilibino,68.05,166.44,22.5,96,98,3.65,RU,1602971065
General Roca,-39.03,-67.58,89.6,18,15,11.41,AR,1602971140
Lucapa,-8.42,20.74,69.33,79,0,2.42,AO,1602971140
Buala,-8.14,159.59,85.37,68,75,5.21,SB,1602971140
Jamestown,42.1,-79.24,51.8,34,1,12.75,US,1602971140
Megion,61.03,76.11,28.4,100,90,13.42,RU,1602971140
Hualmay,-11.1,-77.61,66.31,73,7,9.1,PE,1602971141
Hong Kong,22.29,114.16,71.01,85,55,1.01,HK,1602970991
Broome,42.25,-75.83,52.0,37,1,5.82,US,1602971146
Atuona,-9.8,-139.03,78.58,71,0,15.93,PF,1602971146
Tura,25.52,90.22,73.72,92,3,2.33,IN,1602971146
Halifax,44.65,-63.57,62.01,97,100,4.0,CA,1602970973
Boyuibe,-20.42,-63.28,91.4,31,90,2.26,BO,1602971146
Olinda,-8.01,-34.86,80.6,69,40,12.75,BR,1602971146
Palauig,15.44,119.9,80.38,73,55,4.36,PH,1602971146
Ilulissat,69.22,-51.1,39.2,86,100,2.24,GL,1602971146
Coos Bay,43.37,-124.22,64.0,72,20,16.11,US,1602970882
Aras,42.56,-2.36,50.0,87,13,2.73,ES,1602971146
Nihommatsu,37.58,140.43,48.0,66,74,1.19,JP,1602971146
Pospelikha,51.95,81.77,51.13,45,100,22.15,RU,1602971146
Carutapera,-1.2,-46.02,78.87,78,79,7.45,BR,1602971147
College,64.86,-147.8,27.0,45,75,5.82,US,1602971147
Rawson,-43.3,-65.1,72.12,23,30,19.66,AR,1602971142
Talcahuano,-36.72,-73.12,57.2,67,75,8.05,CL,1602971147
Souillac,-20.52,57.52,73.4,73,20,6.93,MU,1602971147
Bedelē,8.46,36.35,55.92,100,100,0.85,ET,1602971147
Poum,-20.23,164.02,73.08,76,16,9.8,NC,1602970868
Colomi,-17.35,-65.87,68.0,37,75,11.41,BO,1602971147
Tazovsky,67.47,78.7,24.39,97,100,17.34,RU,1602971147
Praia,14.92,-23.51,80.6,83,75,10.29,CV,1602971080
San Patricio,28.02,-97.52,87.8,55,40,13.87,US,1602970892
Los Llanos de Aridane,28.66,-17.92,69.8,73,75,5.82,ES,1602971147
Luorong,24.41,109.61,59.27,80,86,8.77,CN,1602970966
Didsbury,53.42,-2.23,52.0,93,90,1.12,GB,1602971147
Margate,51.38,1.39,52.0,83,100,1.01,GB,1602971147
Río Gallegos,-51.62,-69.22,53.6,58,90,17.22,AR,1602971147
Itarantim,-15.66,-40.07,72.72,73,89,7.99,BR,1602971147
Mastic Beach,40.77,-72.85,60.8,36,1,4.7,US,1602971025
Vao,-22.67,167.48,70.95,61,3,9.53,NC,1602971147
Traian,46.63,27.03,55.4,66,79,5.82,RO,1602971147
Plettenberg Bay,-34.05,23.37,60.06,84,95,7.63,ZA,1602971147
Tautira,-17.73,-149.15,82.4,74,75,13.87,PF,1602971147
Tataouine,32.93,10.45,66.2,55,99,5.82,TN,1602971147
Mazamari,-11.33,-74.53,82.2,51,74,1.61,PE,1602971148
Dolisie,-4.2,12.67,72.81,92,97,4.07,CG,1602971148
Conakry,9.54,-13.68,80.6,83,40,6.93,GN,1602971148
Chui,-33.7,-53.46,65.57,76,99,11.03,UY,1602971148
Castro,-24.79,-50.01,60.04,74,31,9.6,BR,1602970850
Faanui,-16.48,-151.75,79.14,79,40,6.4,PF,1602971148
Cockburn Town,21.46,-71.14,86.0,70,40,12.75,TC,1602971148
Turukhansk,65.82,87.98,26.56,97,100,12.21,RU,1602971148
São Filipe,14.9,-24.5,79.9,82,17,1.57,CV,1602971148
Grindavik,63.84,-22.43,44.6,100,90,11.41,IS,1602971148
Pisco,-13.7,-76.22,68.0,68,4,19.46,PE,1602971148
Pevek,69.7,170.31,28.06,97,96,14.32,RU,1602971148
Presidencia Roque Sáenz Peña,-26.79,-60.44,76.23,80,49,8.03,AR,1602971149
Yuzhne,46.62,31.1,53.6,87,25,4.47,UA,1602971149
Mar del Plata,-38.0,-57.56,69.8,73,20,9.17,AR,1602970924
Lata,40.16,-8.33,60.01,95,36,2.91,PT,1602971154
Goderich,43.75,-81.72,50.0,61,48,12.8,CA,1602971154
Dunedin,-45.87,170.5,51.01,78,12,7.0,NZ,1602971154
Wanning,18.8,110.4,78.58,86,100,21.16,CN,1602971154
Sittwe,20.15,92.9,79.27,88,85,7.38,MM,1602971154
Beloha,-25.17,45.05,65.48,79,36,15.52,MG,1602971154
Samarai,-10.62,150.67,79.81,84,80,8.32,PG,1602971154
Garelochhead,56.08,-4.83,48.2,81,90,2.24,GB,1602971154
Hasaki,35.73,140.83,52.0,100,75,6.93,JP,1602970954
Yellowknife,62.46,-114.35,27.0,79,90,12.75,CA,1602970955
Sirte,31.21,16.59,73.42,81,41,13.85,LY,1602971154
Bayjī,34.93,43.49,70.65,27,0,6.85,IQ,1602971154
Kaitong,44.81,123.15,37.22,73,0,7.31,CN,1602971154
Srednekolymsk,67.45,153.68,23.68,98,75,7.61,RU,1602971154
Tiksi,71.69,128.87,18.79,97,100,11.01,RU,1602971155
Flin Flon,54.77,-101.86,28.4,86,90,10.29,CA,1602971155
Gwadar,25.12,62.33,77.59,24,3,11.88,PK,1602971155
Nur,52.67,22.32,44.01,94,100,1.99,PL,1602971155
Upernavik,72.79,-56.15,36.05,92,100,30.27,GL,1602971155
Saint-Philippe,-21.36,55.77,70.0,68,28,5.82,RE,1602971155
Ejura,7.39,-1.36,74.8,92,100,3.56,GH,1602971155
Mareeba,-17.0,145.43,75.0,73,75,8.05,AU,1602971155
Żurrieq,35.83,14.47,66.0,63,56,8.05,MT,1602971155
Skjervøy,70.03,20.97,38.82,72,54,4.88,NO,1602971155
Jiayuguan City,39.82,98.3,36.61,65,0,3.83,CN,1602971155
Tambacounda,13.75,-13.76,86.0,84,20,2.24,SN,1602971155
Port Lincoln,-34.73,135.87,53.38,65,33,10.33,AU,1602970914
Coroatá,-4.13,-44.12,86.54,50,75,6.42,BR,1602971155
Asău,46.43,26.4,43.0,94,32,6.13,RO,1602971155
Ixtapa,20.7,-105.2,89.6,70,5,12.75,MX,1602971155
Zastron,-30.3,27.08,62.85,29,0,3.11,ZA,1602971155
Olafsvik,64.89,-23.71,46.22,90,97,20.96,IS,1602971155
Ketchikan,55.34,-131.65,48.2,70,75,5.82,US,1602971156
Örnsköldsvik,63.29,18.72,33.8,86,49,9.17,SE,1602971156
Portland,45.52,-122.68,68.0,59,75,3.36,US,1602971074
Slave Lake,55.28,-114.77,21.2,73,90,19.46,CA,1602971080
San Policarpo,12.18,125.51,80.65,81,97,3.24,PH,1602971156
Dikson,73.51,80.55,15.08,94,2,22.57,RU,1602970708
Bolshaya Dzhalga,45.97,42.7,60.28,62,0,11.65,RU,1602971156
Andra,62.51,65.89,31.15,90,100,15.3,RU,1602971156
Kangaatsiaq,68.31,-53.46,39.38,80,79,38.1,GL,1602971156
Tessalit,20.2,1.01,86.2,15,0,8.79,ML,1602971156
Nioro,13.35,-15.75,81.3,77,0,6.69,GM,1602971156
Ekpoma,6.74,6.14,70.23,100,44,2.86,NG,1602971156
Lufilufi,-13.87,-171.6,87.8,70,75,9.17,WS,1602971156
Codrington,-38.27,141.97,50.0,80,85,8.75,AU,1602970828
Tynda,55.17,124.72,11.52,91,0,3.0,RU,1602971156
San Quintín,30.48,-115.95,79.54,51,0,14.56,MX,1602971156
Kota Bharu,6.13,102.24,77.0,94,40,3.36,MY,1602971156
Vila do Maio,15.13,-23.22,80.6,83,75,10.29,CV,1602971162
Kruisfontein,-34.0,24.73,60.01,90,98,1.01,ZA,1602971162
Northam,51.03,-4.22,51.01,86,34,1.01,GB,1602971162
Camargo,27.67,-105.17,87.42,20,0,4.76,MX,1602971162
Atambua,-9.11,124.89,75.38,75,69,2.1,ID,1602971162
Pangnirtung,66.15,-65.71,31.39,95,100,3.2,CA,1602971162
Kamenka,51.32,42.77,54.0,66,100,1.01,RU,1602971162
Hervey Bay,-25.3,152.85,73.99,82,60,4.7,AU,1602970898
Novodugino,55.63,34.28,34.65,96,100,11.99,RU,1602971162
Maniwaki,46.38,-75.97,44.33,77,27,4.59,CA,1602971162
Okhotsk,59.38,143.3,24.82,83,99,12.53,RU,1602971162
Mago,53.25,140.18,30.96,95,66,1.81,RU,1602971162
Erzincan Province,39.75,39.5,42.8,75,0,1.61,TR,1602971162
Sitka,57.05,-135.33,44.6,48,90,8.05,US,1602970590
Nukus,42.45,59.61,46.4,49,0,4.61,UZ,1602971162
Praia da Vitória,38.73,-27.07,62.6,67,20,15.01,PT,1602971162
Esfarāyen,37.08,57.51,37.4,34,0,4.7,IR,1602971162
Bredasdorp,-34.53,20.04,55.4,93,51,3.36,ZA,1602970837
Sal Rei,16.18,-22.92,80.6,83,25,11.41,CV,1602971162
Sliven,42.69,26.33,57.2,76,40,2.24,BG,1602971163
Iralaya,15.0,-83.23,82.22,81,98,9.06,HN,1602971163
Guerrero Negro,27.98,-114.06,85.01,40,97,12.03,MX,1602971163
Soyo,-6.13,12.37,77.34,83,79,7.63,AO,1602971148
Mbanza-Ngungu,-5.25,14.87,72.03,93,85,5.17,CD,1602971163
Richards Bay,-28.78,32.04,70.43,82,1,11.23,ZA,1602971163
Bamnet Narong,15.5,101.69,68.61,90,100,16.71,TH,1602971163
Batemans Bay,-35.72,150.18,60.01,100,94,5.28,AU,1602971163
Hambantota,6.12,81.12,77.0,88,95,4.7,LK,1602971163
Taltal,-25.4,-70.48,63.54,63,22,7.54,CL,1602971163
Dobrin,47.28,23.13,46.4,93,99,5.82,RO,1602971163
Ambilobe,-13.2,49.05,71.1,78,8,3.58,MG,1602971163
Puerto Nariño,-3.77,-70.38,87.8,74,75,5.82,CO,1602971163
Nikolayevka,53.13,47.2,38.16,73,100,7.65,RU,1602971163
Katsuura,35.13,140.3,57.2,82,75,10.29,JP,1602971163
Galesong,-5.32,119.37,78.8,88,20,5.82,ID,1602971164
General Artigas,-26.93,-56.22,86.0,48,100,6.93,PY,1602971164
Touros,-5.2,-35.46,78.8,74,2,10.29,BR,1602971164
Tarsus,36.92,34.88,71.6,88,0,4.29,TR,1602971164
Tawang Town,27.58,91.87,48.92,65,33,3.58,IN,1602971164
Apele Vii,44.07,24.07,48.99,81,6,8.05,RO,1602971164
Meulaboh,4.14,96.13,75.49,83,100,3.56,ID,1602971164
Isiro,2.77,27.62,67.33,99,100,3.87,CD,1602971164
Paamiut,61.99,-49.67,41.56,84,99,8.1,GL,1602971164
Vanavara,60.34,102.28,35.35,96,100,4.92,RU,1602971164
Yavatmal,20.4,78.13,73.08,97,100,1.92,IN,1602971164
Najrān,17.49,44.13,66.2,25,0,2.84,SA,1602971164
Ninghai,29.29,121.42,63.0,99,44,1.01,CN,1602971164
Marsá Maţrūḩ,31.35,27.25,69.8,68,0,10.02,EG,1602971164
Omsk,55.0,73.4,35.6,59,75,13.42,RU,1602971164
Nelson Bay,-32.72,152.15,68.0,64,90,14.99,AU,1602971164
Palmer,42.16,-72.33,59.0,28,20,9.17,US,1602971169
Shakawe,-18.37,21.85,71.89,22,0,6.22,BW,1602971169
Kralendijk,12.15,-68.27,87.8,70,40,19.46,BQ,1602971169
Nālūt,30.33,10.85,65.55,70,95,16.6,LY,1602971169
Bathsheba,13.22,-59.52,82.4,78,20,8.05,BB,1602971169
Mandalgovi,45.76,106.27,32.86,80,0,9.44,MN,1602971169
Damaturu,11.75,11.96,86.94,33,14,2.19,NG,1602971170
Arrondissement de Saverne,48.83,7.25,50.0,87,90,2.24,FR,1602971170
Poronaysk,49.22,143.12,44.91,64,97,9.35,RU,1602971170
Kumul,42.8,93.45,43.16,51,0,5.82,CN,1602971170
Vermillion,42.78,-96.93,54.0,61,75,19.46,US,1602971170
Moussoro,13.64,16.49,91.54,13,0,8.05,TD,1602971170
Vila Velha,-20.33,-40.29,73.4,69,90,9.17,BR,1602970956
Jalu,29.03,21.55,81.84,22,0,8.52,LY,1602971170
Kavaratti,10.57,72.64,81.12,80,100,9.62,IN,1602971170
Jerusalem,31.77,35.22,66.0,87,0,3.96,IL,1602971170
Salalah,17.02,54.09,75.2,60,0,4.7,OM,1602971170
Burhar,23.22,81.53,72.27,85,80,2.53,IN,1602971170
Fenyi,27.81,114.67,57.07,91,92,1.86,CN,1602971170
Westport,41.14,-73.36,60.8,26,1,10.29,US,1602971048
Evensk,61.95,159.23,35.96,81,97,14.03,RU,1602971170
Nikolayevsk-on-Amur,53.14,140.73,32.41,92,96,3.24,RU,1602971170
Korem,12.51,39.52,53.85,67,28,1.14,ET,1602971170
Hobyo,5.35,48.53,79.92,77,68,17.65,SO,1602970895
Naze,28.37,129.48,73.4,94,75,10.29,JP,1602971042
Kudahuvadhoo,2.67,72.89,82.31,79,93,17.98,MV,1602971170
Merauke,-8.47,140.33,78.35,78,0,12.33,ID,1602971170
Maraã,-1.83,-65.37,83.25,69,86,0.2,BR,1602971171
Yarmouth,41.71,-70.23,57.2,44,1,10.29,US,1602971171
Port-Cartier,50.03,-66.87,45.0,100,90,11.41,CA,1602971171
Fare,-16.7,-151.02,80.11,72,69,0.87,PF,1602971171
Ipixuna,-1.76,-48.8,80.6,83,75,9.17,BR,1602971171
Vostok,46.49,135.88,33.85,98,45,7.25,RU,1602971171
Nantucket,41.28,-70.1,59.0,44,1,13.87,US,1602971171
Ojinaga,29.57,-104.42,87.8,23,1,3.36,MX,1602971171
Fuyu,45.18,124.82,36.34,77,0,7.07,CN,1602971171
Ballina,-28.87,153.57,73.99,64,31,8.05,AU,1602971171
Takoradze,4.88,-1.76,76.93,90,94,7.74,GH,1602971171
Bahía Honda,22.9,-83.16,81.43,80,53,14.05,CU,1602971171
Anadyr,64.75,177.48,28.4,86,20,6.71,RU,1602971171
Haicheng,40.85,122.75,45.48,57,1,5.14,CN,1602971171
Buncrana,55.13,-7.45,47.84,84,99,5.17,IE,1602971171
Barguzin,53.62,109.62,32.74,93,94,6.15,RU,1602971171
Lázaro Cárdenas,17.96,-102.2,85.35,72,67,10.49,MX,1602971171
Zinacantán,16.75,-92.7,82.4,61,75,11.41,MX,1602971171
Sangar,63.92,127.47,16.81,96,100,4.38,RU,1602971171
Zharkent,44.16,80.0,48.7,47,0,3.27,KZ,1602971171
Sémbé,1.65,14.58,71.76,93,89,1.54,CG,1602971171
Júlio de Castilhos,-29.23,-53.68,65.66,56,100,5.48,BR,1602971171
Novaya Igirma,57.13,103.91,39.25,91,100,7.45,RU,1602971171
Itupiranga,-5.13,-49.33,80.6,74,40,6.93,BR,1602971176
Lavrentiya,65.58,-171.0,38.57,89,70,4.12,RU,1602971176
Safi,32.3,-9.24,62.69,73,0,15.37,MA,1602971177
Isangel,-19.55,169.27,77.0,78,20,13.35,VU,1602971177
Mount Gambier,-37.83,140.77,48.2,81,90,4.7,AU,1602971177
Alaşehir,38.35,28.52,62.01,61,100,10.0,TR,1602971177
Fort Nelson,58.81,-122.7,26.6,45,20,4.7,CA,1602971177
Darnah,32.77,22.64,77.76,58,91,6.98,LY,1602971177
Kambove,-10.88,26.6,67.19,64,59,4.45,CD,1602971177
Labuhan,-6.88,112.21,77.94,78,88,8.79,ID,1602971177
Palana,59.12,159.97,30.61,98,59,15.28,RU,1602971177
Koutiala,12.39,-5.46,85.15,34,11,6.78,ML,1602971177
Boa Vista,2.82,-60.67,93.2,41,40,9.17,BR,1602971177
Grand Gaube,-20.01,57.66,70.0,82,38,1.99,MU,1602971177
Guangyuan,32.44,105.82,59.0,99,98,0.4,CN,1602971177
Bom Jesus,-9.07,-44.36,85.89,23,66,5.21,BR,1602971177
Nampula,-15.12,39.27,69.8,77,20,12.75,MZ,1602971177
Nhulunbuy,-12.23,136.77,75.2,78,99,7.52,AU,1602971177
Omboué,-1.57,9.26,76.98,85,100,6.13,GA,1602971177
Orlik,52.52,99.83,23.88,88,60,3.29,RU,1602971177
Te Anau,-45.42,167.72,51.42,78,100,0.63,NZ,1602971177
Ahipara,-35.17,173.17,60.91,58,10,6.33,NZ,1602971177
Kondinskoye,59.65,67.41,28.8,94,66,16.22,RU,1602970917
Estevan,49.13,-102.98,24.8,58,90,24.16,CA,1602971104
Kawalu,-7.38,108.21,71.6,91,93,1.86,ID,1602971178
Ust-Maya,60.42,134.53,14.83,95,100,4.97,RU,1602971178
Byron Bay,-28.65,153.62,73.99,64,24,8.05,AU,1602971178
Krasnyy Chikoy,50.36,108.75,28.58,95,13,3.76,RU,1602971178
Khovd,48.01,91.64,31.96,79,22,0.89,MN,1602971178
Buraidah,26.33,43.98,69.8,26,0,3.36,SA,1602970976
Cherskiy,68.75,161.3,20.8,95,84,11.03,RU,1602971178
Três Lagoas,-20.75,-51.68,84.74,41,46,4.68,BR,1602971178
Mushie,-3.02,16.9,72.75,95,76,2.89,CD,1602971178
Bailieborough,53.92,-6.97,50.0,87,100,1.01,IE,1602971178
Port Elizabeth,-33.92,25.57,60.8,93,92,13.87,ZA,1602971178
Makkah al Mukarramah,21.43,39.83,78.67,32,0,4.5,SA,1602971147
San Cristobal,7.77,-72.22,93.2,36,40,17.22,VE,1602971178
Xining,36.62,101.77,34.57,71,88,1.39,CN,1602971178
Shubarshi,48.59,57.19,52.05,81,35,5.55,KZ,1602971178
Berlevåg,70.86,29.09,37.8,74,99,13.31,NO,1602971138
Prainha,-1.8,-53.48,86.4,49,76,2.64,BR,1602971178
Sola,-13.88,167.55,80.6,88,90,17.94,VU,1602971178
Eyl,7.98,49.82,79.66,77,3,13.31,SO,1602971178
Yilan,24.76,121.75,73.4,88,75,9.17,TW,1602971178
Egvekinot,66.32,-179.17,26.04,90,4,4.61,RU,1602971178
Diu,20.71,70.98,81.5,86,13,11.97,IN,1602971178
Taoudenni,22.68,-3.98,85.87,20,0,9.26,ML,1602971178
Solnechnyy,50.72,136.63,34.79,86,92,3.29,RU,1602971178
Vredendal,-31.67,18.5,58.48,82,3,7.36,ZA,1602971178
Buchanan,5.88,-10.05,78.8,94,75,8.7,LR,1602971179
Abashiri,44.02,144.27,46.2,71,0,9.4,JP,1602971025
Road Town,18.42,-64.62,84.2,74,40,9.17,VG,1602971184
Airai,-8.93,125.41,62.55,77,54,1.72,TL,1602971184
Paran'ga,56.7,49.4,31.3,97,50,4.07,RU,1602971184
Pandan,14.05,124.17,81.14,82,100,7.92,PH,1602971184
Synya,65.37,58.04,27.12,98,39,6.17,RU,1602971184
Mahébourg,-20.41,57.7,73.4,73,20,6.93,MU,1602971184
Moyamba,8.17,-12.43,75.49,97,100,3.04,SL,1602971184
Haapiti,-17.57,-149.87,82.4,74,75,13.87,PF,1602970968
Port Said,31.26,32.28,77.0,62,0,10.11,EG,1602970986
Progreso,21.28,-89.67,78.01,88,75,4.7,MX,1602971184
São João da Barra,-21.64,-41.05,75.2,60,75,6.93,BR,1602971184
Sinjai,-5.12,120.25,75.2,75,98,3.96,ID,1602971184
Turaif,31.67,38.66,66.2,32,0,6.93,SA,1602971184
Dno,57.83,29.96,35.91,84,98,3.42,RU,1602971184
Krasnoznamensk,55.6,37.04,37.0,97,75,13.42,RU,1602971184
Leningradskiy,69.38,178.42,25.72,90,0,9.04,RU,1602971184
Nador,35.17,-2.93,62.6,72,0,3.36,MA,1602971184
Sabang,5.89,95.32,81.84,77,100,23.91,ID,1602971184
Jacareacanga,-6.22,-57.75,76.51,82,98,3.4,BR,1602971184
Altay,47.87,88.12,38.57,58,1,6.73,CN,1602971184
Abonnema,4.71,6.79,77.0,94,40,3.4,NG,1602971185
Moengo,5.62,-54.4,79.99,78,89,4.79,SR,1602971185
Olenegorsk,68.15,33.3,28.69,95,15,5.53,RU,1602971067
Ugoofaaru,5.67,73.0,82.26,76,27,15.03,MV,1602971185
Wanaka,-44.7,169.15,55.99,68,87,4.92,NZ,1602971185
Hoi An,15.88,108.33,77.0,94,75,1.12,VN,1602971185
Laguna,38.42,-121.42,91.99,15,1,1.77,US,1602971185
Mossendjo,-2.95,12.73,70.3,99,85,2.91,CG,1602971185
Segbwema,8.0,-10.95,72.93,97,97,1.88,SL,1602971185
Priboj,44.6,18.93,44.01,100,20,2.89,BA,1602971185
Lovozero,68.0,35.01,27.61,95,0,4.63,RU,1602971185
Nizhnevartovsk,60.93,76.55,28.4,100,90,13.42,RU,1602971185
Kontagora,10.4,5.47,76.77,78,60,3.58,NG,1602971185
Bengkulu,-3.8,102.27,76.55,84,100,4.61,ID,1602971185
High Level,58.52,-117.14,24.8,58,90,10.29,CA,1602970986
Atarra,25.28,80.57,78.26,53,0,2.68,IN,1602971185
Baft,29.23,56.61,48.78,33,0,4.0,IR,1602971185
Jasper,37.2,-94.35,73.4,27,1,24.16,US,1602971185
Nemuro,43.32,145.57,52.2,71,0,12.71,JP,1602971185
Ljungby,56.83,13.94,45.0,93,100,8.05,SE,1602971185
Pontianak,-0.03,109.33,74.98,93,95,2.51,ID,1602971185
Pundaguitan,6.37,126.17,82.13,73,97,5.99,PH,1602971185
Huejuquilla el Alto,22.6,-103.87,77.5,35,34,3.33,MX,1602971186
Ngunguru,-35.62,174.5,64.0,60,1,8.99,NZ,1602971186
Bara,10.37,10.73,77.58,76,64,7.07,NG,1602971186
Klaksvík,62.23,-6.59,35.6,65,100,10.33,FO,1602971186
Alofi,-19.06,-169.92,82.4,83,99,11.41,NU,1602971186
Sayyan,15.17,44.32,53.2,39,0,5.23,YE,1602971186
Nova Kakhovka,46.75,33.35,61.12,73,99,6.98,UA,1602971186
Andilamena,-17.02,48.58,59.07,93,27,4.65,MG,1602971191
Haines Junction,60.75,-137.51,24.24,71,0,2.33,CA,1602971191
Strezhevoy,60.73,77.59,28.4,100,90,13.42,RU,1602971191
Udachny,66.42,112.4,6.8,92,0,2.24,RU,1602971191
Magadan,59.57,150.8,32.86,92,95,0.72,RU,1602971191
Moshenskoye,58.51,34.59,33.26,92,99,4.0,RU,1602971191
Puerto Escondido,15.85,-97.07,84.2,70,90,4.7,MX,1602971191
Khandyga,62.67,135.6,17.87,97,100,4.03,RU,1602971191
Launceston,-41.45,147.17,52.0,76,90,10.29,AU,1602971191
Gueugnon,46.6,4.06,48.2,93,90,3.36,FR,1602971191
Kenai,60.55,-151.26,39.99,59,1,10.29,US,1602971191
Buriti Alegre,-18.14,-49.04,78.24,52,0,2.15,BR,1602971191
Hay River,60.82,-115.8,28.4,68,90,21.92,CA,1602971191
Coyhaique,-45.58,-72.07,53.6,62,75,8.05,CL,1602971151
Ponta Delgada,37.73,-25.67,60.8,87,40,10.29,PT,1602971191
Briançon,44.9,6.65,44.01,90,24,1.48,FR,1602971191
Sydney,-33.87,151.21,69.01,82,75,4.7,AU,1602970852
Guánica,17.97,-66.91,82.0,73,25,9.28,PR,1602971191
Luena,-11.78,19.92,66.51,66,10,3.51,AO,1602971192
Miramar,25.99,-80.23,84.99,66,40,17.22,US,1602971192
Aykhal,66.0,111.5,6.8,92,0,2.24,RU,1602971192
Ashland,40.82,-82.27,57.2,30,1,12.75,US,1602971192
Terrace,54.52,-128.6,44.6,70,90,16.11,CA,1602971117
Maniitsoq,65.42,-52.9,38.93,94,98,11.56,GL,1602971192
Baharly,38.44,57.43,58.55,31,0,6.85,TM,1602971192
Port Hedland,-20.32,118.57,66.2,93,0,8.05,AU,1602971192
Vieste,41.88,16.18,59.0,87,20,4.7,IT,1602971192
Banda Aceh,5.56,95.32,80.4,73,100,14.88,ID,1602971192
Oga,46.46,10.35,41.0,92,22,2.24,IT,1602971192
Cave Spring,37.23,-80.01,60.8,26,1,5.82,US,1602971192
Keti Bandar,24.14,67.45,85.6,64,90,6.71,PK,1602971192
Ereymentau,51.62,73.1,48.27,67,97,14.47,KZ,1602971192
Vaitape,-16.52,-151.75,79.93,77,45,6.6,PF,1602971192
Vestmanna,62.16,-7.17,35.6,76,100,7.25,FO,1602971192
North Platte,41.12,-100.77,62.6,42,1,18.34,US,1602971085
Vestmannaeyjar,63.44,-20.27,46.78,80,100,8.86,IS,1602971192
Ludvika,60.15,15.19,39.0,64,82,10.29,SE,1602971192
Erdaojiang,41.78,126.03,39.27,88,0,2.13,CN,1602971192
Arucas,28.12,-15.52,71.6,68,75,4.7,ES,1602971192
Emerald,-23.53,148.17,66.99,82,6,4.7,AU,1602971192
Balikpapan,-1.27,116.83,75.51,93,100,6.93,ID,1602971192
Necochea,-38.55,-58.74,72.63,81,0,10.67,AR,1602971192
Sept-Îles,50.2,-66.38,45.0,93,90,17.22,CA,1602970916
Tonantins,-2.87,-67.8,83.03,72,87,1.05,BR,1602971193
Angoche,-16.23,39.91,72.55,82,13,10.56,MZ,1602971193
Luwuk,-0.95,122.79,76.37,78,100,0.98,ID,1602971193
Khanbari,27.37,87.2,68.05,64,24,2.75,NP,1602971193
Kaseda-shirakame,31.42,130.32,51.8,93,20,4.7,JP,1602971193
Odda,60.07,6.55,45.0,73,78,13.0,NO,1602971193
Quelimane,-17.88,36.89,68.47,85,13,3.49,MZ,1602971193
Broken Hill,-31.95,141.43,48.2,87,7,13.87,AU,1602971198
Riberalta,-10.98,-66.1,83.97,56,73,2.37,BO,1602971198
Elektrogorsk,55.88,38.79,35.6,82,90,11.18,RU,1602971198
Litovko,49.24,135.17,36.57,86,8,11.65,RU,1602971198
Juegang,32.32,121.19,57.78,63,11,4.54,CN,1602971198
Delta del Tigre,-34.76,-56.39,69.8,82,75,6.93,UY,1602971198
Metro,-5.11,105.31,74.8,93,70,4.72,ID,1602971198
Sakakah,29.97,40.21,69.8,22,0,5.82,SA,1602971198
Wynyard,-41.0,145.72,51.01,61,55,13.0,AU,1602971198
Aginskoye,51.1,114.53,29.44,91,91,8.19,RU,1602971198
Houston,29.76,-95.36,80.6,65,90,10.29,US,1602971097
Mpophomeni,-29.57,30.19,66.0,93,17,3.27,ZA,1602971198
Soe,-9.86,124.28,68.76,71,17,2.73,ID,1602971198
Xinqing,48.23,129.5,25.63,94,29,4.12,CN,1602971199
Ubari,26.59,12.78,77.18,18,6,1.12,LY,1602971199
Cidreira,-30.18,-50.21,67.15,80,63,21.12,BR,1602970828
Vila,42.03,-8.16,53.01,90,80,4.14,PT,1602971199
Belaya Gora,68.53,146.42,20.53,98,93,9.6,RU,1602971199
New Ulm,44.31,-94.46,46.99,75,90,8.05,US,1602970992
Coxim,-18.51,-54.76,90.48,38,86,4.38,BR,1602971199
Chokurdakh,70.63,147.92,24.17,98,100,3.69,RU,1602971199
Sri Aman,1.24,111.46,77.0,100,94,1.12,MY,1602971199
Aswān,24.09,32.91,82.06,28,0,8.57,EG,1602971199
Ureshinomachi-shimojuku,33.1,129.98,60.8,87,100,3.36,JP,1602971199
Zhuanghe,39.7,122.99,50.83,76,0,5.01,CN,1602971199
Mnogovershinnyy,53.94,139.92,28.56,98,64,4.27,RU,1602971199
Balabac,7.99,117.06,81.14,78,100,13.4,PH,1602971199
Arês,-6.19,-35.16,78.8,74,3,10.29,BR,1602971182
Wenling,28.37,121.36,63.0,97,100,8.5,CN,1602971199
Uinskoye,56.88,56.58,31.32,96,36,7.25,RU,1602971199
Hede,33.77,120.25,52.41,71,0,2.66,CN,1602971199
Baghdad,33.34,44.4,69.8,37,0,2.24,IQ,1602971199
Akçakoca,41.09,31.12,71.2,58,100,3.67,TR,1602971199
Zhuhai,22.28,113.57,73.4,78,20,17.22,CN,1602971199
Aklavik,68.22,-135.01,17.6,78,5,4.7,CA,1602971199
Karratha,-20.74,116.85,63.01,89,8,10.04,AU,1602971199
Dunda,-8.12,34.25,69.82,56,74,4.09,TZ,1602971200
Seabra,-12.42,-41.77,75.63,47,1,5.77,BR,1602971200
Dalby,-27.18,151.27,70.0,59,0,7.0,AU,1602971200
Sibolga,1.74,98.78,75.7,79,100,3.29,ID,1602971200
Orbetello,42.44,11.22,53.6,93,0,3.36,IT,1602971200
Aranos,-24.13,19.12,74.82,19,27,12.64,NA,1602971200
Tanout,14.97,8.89,89.87,14,0,7.27,NE,1602971200
Calderitas,18.55,-88.25,80.6,83,75,5.28,MX,1602971200
Berdigestyakh,62.1,126.7,15.76,96,100,7.25,RU,1602971200
Ibirapitanga,-14.16,-39.37,71.98,92,43,3.87,BR,1602971200
Padang,-0.95,100.35,77.0,76,76,3.44,ID,1602970889
San Juan,-31.54,-68.54,95.97,11,0,7.92,AR,1602971200
Bandar-e Lengeh,26.56,54.88,78.8,34,0,9.17,IR,1602971200
Koszalin,54.19,16.17,44.01,90,54,7.74,PL,1602971205
Kieta,-6.22,155.63,82.63,74,91,2.21,PG,1602971210
Sambava,-14.27,50.17,72.48,78,33,8.99,MG,1602971210
Mbarara,-0.61,30.65,66.15,76,93,3.49,UG,1602971210
Qurayyat,31.33,37.34,71.6,33,0,4.7,SA,1602971210
Yantal',56.85,105.25,40.42,89,100,8.9,RU,1602971210
Mossamedes,-15.2,12.15,69.55,73,16,6.67,AO,1602971210
Worthington,40.09,-83.02,59.0,22,1,8.05,US,1602970976
Bayburt,40.26,40.23,51.03,41,0,3.47,TR,1602971211
Timrå,62.49,17.33,37.4,74,0,11.41,SE,1602971211
Hofn,64.25,-15.21,41.04,83,100,4.83,IS,1602971211
Jumla,29.27,82.18,50.7,51,0,4.9,NP,1602971211
Muravlenko,63.79,74.52,27.12,97,100,24.32,RU,1602971211
Chunskiy,56.08,99.63,37.65,86,100,5.32,RU,1602971211
Kasongo-Lunda,-6.47,16.82,71.37,89,29,1.88,CD,1602971211
São Miguel do Guamá,-1.63,-47.48,80.15,72,100,6.26,BR,1602971211
Magoula,38.08,23.52,69.01,60,0,3.36,GR,1602971211
Landau,49.21,8.11,48.99,91,99,1.99,DE,1602971211
Tevaitoa,-16.78,-151.5,79.72,77,45,5.82,PF,1602971211
Ha Tinh,18.33,105.9,70.54,93,100,17.92,VN,1602971211
Laas,46.62,10.7,41.0,93,75,6.93,IT,1602971045
Ossora,59.24,163.07,36.07,76,1,6.69,RU,1602971211
Narasannapeta,18.42,84.05,77.23,89,54,5.97,IN,1602971211
Hauterive,46.09,3.45,48.2,87,90,1.12,FR,1602971211
Banepā,27.63,85.52,66.2,93,40,2.24,NP,1602971211
